[
    {"enterpriseId": 2,
    "region": "경기",
    "certificationNumber": "제2011-077호",
    "name": "주식회사온케어구리",
    "businessRegistrationNumber": "132-81-99250",
    "socialPurpose": "혼합형",
    "type": "보건",
    "representativeName": "방선영",
    "representativePhone": "031-569-6696",
    "city": "경기도 구리시",
    "district": " 건원대로 36 , 8층(인창동, 화성골드프라자)",
    "latitude": 37.60439,
    "longitude": 127.1405,
    "website": null,
    "certificationYear": 2011,
    "storeType": "오프라인"
  },
  {
    "enterpriseId": 9,
    "name": "사회복지법인천주교수원교구사회복지회행복한일터",
    "region": "경기",
    "certificationNumber": "제2008-140호",
    "businessRegistrationNumber": "124-82-16406",
    "socialPurpose": "일자리제공형",
    "type": "기타",
    "representativeName": "장성욱",
    "representativePhone": "031-366-9512",
    "city": "경기도 화성시",
    "district": "남양읍 현대기아로 506 .",
    "latitude": 37.19459,
    "longitude": 126.8487,
    "website": "http://www.행복한일터.kr",
    "certificationYear": 2008
  },
  {
    "enterpriseId": 10,
    "name": "(주)극단민들레",
    "region": "경기",
    "certificationNumber": "제2011-087호",
    "businessRegistrationNumber": "105-87-61623",
    "socialPurpose": "사회서비스제공형",
    "type": "문화, 예술",
    "representativeName": "장계숙",
    "representativePhone": "031-358-7587",
    "city": "경기도 화성시",
    "district": "우정읍 이화뱅곳길 22 -",
    "latitude": 37.03983,
    "longitude": 126.7979,
    "website": "www.mdl.or.kr",
    "certificationYear": 2011
  },
  {
    "enterpriseId": 98,
    "name": "벼리마을(안양시장애인보호작업장)",
    "region": "경기",
    "certificationNumber": "제2011-091호",
    "businessRegistrationNumber": "123-82-67431",
    "socialPurpose": "지역사회공헌형",
    "type": "기타",
    "representativeName": "노중호",
    "representativePhone": "031-443-2789",
    "city": "경기도 안양시",
    "district": "만안구 장내로 113 (안양동) 1층",
    "latitude": 37.39687,
    "longitude": 126.9205,
    "website": "www.ajbj.co.kr",
    "certificationYear": 2011
  },
  {
    "enterpriseId": 45,
    "name": "(주)친환경상품지원센터",
    "region": "경기",
    "certificationNumber": "제2011-092호",
    "businessRegistrationNumber": "134-87-34522",
    "socialPurpose": "기타(창의ㆍ혁신)형",
    "type": "환경",
    "representativeName": "유재식",
    "representativePhone": "031-419-7749",
    "city": "경기도 안산시",
    "district": "상록구 광덕산안길 20 3층 안산시사회적경제지원센터8호(월피동, 광덕종합시장)",
    "latitude": 37.33506,
    "longitude": 126.8449,
    "website": "www.okeco.co.kr",
    "certificationYear": 2011
  },
  {
    "enterpriseId": 35,
    "name": "청평문화예술학교",
    "region": "경기",
    "certificationNumber": "제2011-093호",
    "businessRegistrationNumber": "132-82-69563",
    "socialPurpose": "기타(창의ㆍ혁신)형",
    "type": "문화, 예술",
    "representativeName": "진수영",
    "representativePhone": "031-584-8980",
    "city": "경기도 가평군",
    "district": "경기도 가평군ㅇ",
    "latitude": 37.82432,
    "longitude": 127.5086,
    "website": "www.cpart.kr",
    "certificationYear": 2011
  },
  {
    "enterpriseId": 17,
    "name": "(주)성광산업",
    "region": "경기",
    "certificationNumber": "제2011-099호",
    "businessRegistrationNumber": "128-82-40987",
    "socialPurpose": "일자리제공형",
    "type": "기타",
    "representativeName": "성수용",
    "representativePhone": "031-596-3221",
    "city": "경기도 양주시",
    "district": "경기도 양주시ㅇ",
    "latitude": 37.90259,
    "longitude": 127.1492,
    "website": "www.중원기업.com",
    "certificationYear": 2012
  },
  {
    "enterpriseId": 20,
    "name": "(주)나누리",
    "region": "경기",
    "certificationNumber": "제2012-048호",
    "businessRegistrationNumber": "132-81-98396",
    "socialPurpose": "일자리제공형",
    "type": "기타",
    "representativeName": "김은순",
    "representativePhone": "031-791-1788",
    "city": "경기도 하남시",
    "district": "경기도 하남시ㅇ",
    "latitude": 37.57136,
    "longitude": 127.1907,
    "website": "www.nanuri57.com",
    "certificationYear": 2012
  },
  {
    "enterpriseId": 37,
    "name": "주식회사나눔환경",
    "region": "경기",
    "certificationNumber": "제2012-074호",
    "businessRegistrationNumber": "129-86-54403",
    "socialPurpose": "일자리제공형",
    "type": "환경",
    "representativeName": "한용진",
    "representativePhone": "031-721-0436",
    "city": "경기도 성남시",
    "district": "경기도 성남시ㅇ",
    "latitude": 37.43574,
    "longitude": 127.1426,
    "website": null,
    "certificationYear": 2012
  },
  {
    "enterpriseId": 12,
    "name": "(주)떡찌니",
    "region": "경기",
    "certificationNumber": "제2012-097호",
    "businessRegistrationNumber": "220-88-07925",
    "socialPurpose": "일자리제공형",
    "type": "기타",
    "representativeName": "석지현",
    "representativePhone": "02-529-1345",
    "city": "경기도 광주시",
    "district": "경기도 광주시ㅇ",
    "latitude": 37.35967,
    "longitude": 127.3923,
    "website": "www.dduckzziny.co.kr",
    "certificationYear": 2012
  },
  {
    "enterpriseId": 120,
    "name": "사단법인노름마치예술단",
    "region": "경기",
    "certificationNumber": "제2012-100호",
    "businessRegistrationNumber": "105-82-20248",
    "socialPurpose": "기타(창의ㆍ혁신)형",
    "type": "문화, 예술",
    "representativeName": "김주홍",
    "representativePhone": "02-323-2257",
    "city": "경기도 고양시",
    "district": "경기도 고양시ㅇ",
    "latitude": 37.59064,
    "longitude": 126.8686,
    "website": "www.noreummachi.com",
    "certificationYear": 2012
  },
  {
    "enterpriseId": 140,
    "name": "주식회사 디자인나무",
    "region": "경기",
    "certificationNumber": "제2012-102호",
    "businessRegistrationNumber": "138-81-69716",
    "socialPurpose": "일자리제공형",
    "type": "기타",
    "representativeName": "김희숙",
    "representativePhone": "031-450-3140",
    "city": "경기도 안양시",
    "district": "경기도 안양시ㅇ",
    "latitude": 37.39968,
    "longitude": 126.9701,
    "website": "namood.com",
    "certificationYear": 2012
  }
]